{"type":"FeatureCollection", "features": [
{"type":"Feature","geometry":{"type":"Point","coordinates":[-122.312499331982,47.6139276259521]},"properties":{"OBJECTID":1,"NAME":"Academy for Precision Learning","SCHOOL_STREET_ADDRESS":"1432 15th Ave","SCHOOL_CITY":"Seattle","SCHOOL_STATE":"WA","SCHOOL_ZIP":98122,"SCHOOL_COUNTY":"King","PUBLIC_SCHOOL_DISTRICT":"Seattle","FOR_PROFIT_OR_NON_PROFIT":"Nonprofit","SE_ANNO_CAD_DATA":""},"id":1},
{"type":"Feature","geometry":{"type":"Point","coordinates":[-122.298687190845,47.5865305487521]},"properties":{"OBJECTID":2,"NAME":"AsheÃÅ Preparatory Academy","SCHOOL_STREET_ADDRESS":"2600 South Holgate Street","SCHOOL_CITY":"Seattle","SCHOOL_STATE":"WA","SCHOOL_ZIP":98144,"SCHOOL_COUNTY":"King","PUBLIC_SCHOOL_DISTRICT":"Seattle","FOR_PROFIT_OR_NON_PROFIT":"For-profit","SE_ANNO_CAD_DATA":""},"id":2},
{"type":"Feature","geometry":{"type":"Point","coordinates":[-122.292838947395,47.6748532410043]},"properties":{"OBJECTID":3,"NAME":"Assumption / St. Bridget School","SCHOOL_STREET_ADDRESS":"6220 32nd Ave NE","SCHOOL_CITY":"Seattle","SCHOOL_STATE":"WA","SCHOOL_ZIP":98115,"SCHOOL_COUNTY":"King","PUBLIC_SCHOOL_DISTRICT":"Seattle","FOR_PROFIT_OR_NON_PROFIT":"Nonprofit","SE_ANNO_CAD_DATA":""},"id":3},
{"type":"Feature","geometry":{"type":"Point","coordinates":[-122.320348684631,47.6393158240258]},"properties":{"OBJECTID":4,"NAME":"Bertschi School","SCHOOL_STREET_ADDRESS":"2227 Tenth Avenue E","SCHOOL_CITY":"Seattle","SCHOOL_STATE":"WA","SCHOOL_ZIP":98102,"SCHOOL_COUNTY":"King","PUBLIC_SCHOOL_DISTRICT":"Seattle","FOR_PROFIT_OR_NON_PROFIT":"Nonprofit","SE_ANNO_CAD_DATA":""},"id":4},
{"type":"Feature","geometry":{"type":"Point","coordinates":[-122.335525915959,47.6889105830018]},"properties":{"OBJECTID":5,"NAME":"Bishop Blanchet High School","SCHOOL_STREET_ADDRESS":"8200 Wallingford Ave N","SCHOOL_CITY":"Seattle","SCHOOL_STATE":"WA","SCHOOL_ZIP":98103,"SCHOOL_COUNTY":"King","PUBLIC_SCHOOL_DISTRICT":"Seattle","FOR_PROFIT_OR_NON_PROFIT":"Nonprofit","SE_ANNO_CAD_DATA":""},"id":5},
{"type":"Feature","geometry":{"type":"Point","coordinates":[-122.31201113523,47.5977078648111]},"properties":{"OBJECTID":6,"NAME":"Bright Water Waldorf School","SCHOOL_STREET_ADDRESS":"1414 S Weller St, Suite C","SCHOOL_CITY":"Seattle","SCHOOL_STATE":"WA","SCHOOL_ZIP":98144,"SCHOOL_COUNTY":"King","PUBLIC_SCHOOL_DISTRICT":"Seattle","FOR_PROFIT_OR_NON_PROFIT":"Nonprofit","SE_ANNO_CAD_DATA":""},"id":6},
{"type":"Feature","geometry":{"type":"Point","coordinates":[-122.321711046112,47.7192256255777]},"properties":{"OBJECTID":7,"NAME":"Billings Middle School","SCHOOL_STREET_ADDRESS":"12351 8th Ave NE","SCHOOL_CITY":"Seattle","SCHOOL_STATE":"WA","SCHOOL_ZIP":98125,"SCHOOL_COUNTY":"King","PUBLIC_SCHOOL_DISTRICT":"Seattle","FOR_PROFIT_OR_NON_PROFIT":"Nonprofit","SE_ANNO_CAD_DATA":""},"id":7},
{"type":"Feature","geometry":{"type":"Point","coordinates":[-122.327141790157,47.7007927310607]},"properties":{"OBJECTID":8,"NAME":"Brightmont Academy - Seattle","SCHOOL_STREET_ADDRESS":"115 NE 100th Street, Ste 200","SCHOOL_CITY":"Seattle","SCHOOL_STATE":"WA","SCHOOL_ZIP":98125,"SCHOOL_COUNTY":"King","PUBLIC_SCHOOL_DISTRICT":"Seattle","FOR_PROFIT_OR_NON_PROFIT":"For-profit","SE_ANNO_CAD_DATA":""},"id":8},
{"type":"Feature","geometry":{"type":"Point","coordinates":[-122.262765625045,47.5104202530452]},"properties":{"OBJECTID":9,"NAME":"Cristo Rey Jesuit Seattle High School","SCHOOL_STREET_ADDRESS":"10001 57th Ave. S","SCHOOL_CITY":"Seattle","SCHOOL_STATE":"WA","SCHOOL_ZIP":98178,"SCHOOL_COUNTY":"King","PUBLIC_SCHOOL_DISTRICT":"Seattle","FOR_PROFIT_OR_NON_PROFIT":"Nonprofit","SE_ANNO_CAD_DATA":""},"id":9},
{"type":"Feature","geometry":{"type":"Point","coordinates":[-122.268030990536,47.5430985259125]},"properties":{"OBJECTID":10,"NAME":"Derech Emunah Seattle Jewish Girls High School","SCHOOL_STREET_ADDRESS":"5142 S Holly St","SCHOOL_CITY":"Seattle","SCHOOL_STATE":"WA","SCHOOL_ZIP":98118,"SCHOOL_COUNTY":"King","PUBLIC_SCHOOL_DISTRICT":"Seattle","FOR_PROFIT_OR_NON_PROFIT":"Nonprofit","SE_ANNO_CAD_DATA":""},"id":10},
{"type":"Feature","geometry":{"type":"Point","coordinates":[-122.2890475399,47.6807294681164]},"properties":{"OBJECTID":11,"NAME":"Concordia Lutheran School","SCHOOL_STREET_ADDRESS":"7040 36th Ave NE","SCHOOL_CITY":"Seattle","SCHOOL_STATE":"WA","SCHOOL_ZIP":98115,"SCHOOL_COUNTY":"King","PUBLIC_SCHOOL_DISTRICT":"Seattle","FOR_PROFIT_OR_NON_PROFIT":"Nonprofit","SE_ANNO_CAD_DATA":""},"id":11},
{"type":"Feature","geometry":{"type":"Point","coordinates":[-122.353499945392,47.7138744802086]},"properties":{"OBJECTID":12,"NAME":"Christ the King School","SCHOOL_STREET_ADDRESS":"415 N 117th St","SCHOOL_CITY":"Seattle","SCHOOL_STATE":"WA","SCHOOL_ZIP":98133,"SCHOOL_COUNTY":"King","PUBLIC_SCHOOL_DISTRICT":"Seattle","FOR_PROFIT_OR_NON_PROFIT":"Nonprofit","SE_ANNO_CAD_DATA":""},"id":12},
{"type":"Feature","geometry":{"type":"Point","coordinates":[-122.312440079584,47.6760004590146]},"properties":{"OBJECTID":13,"NAME":"Dartmoor School","SCHOOL_STREET_ADDRESS":"6515 15th Ave NE","SCHOOL_CITY":"Seattle","SCHOOL_STATE":"WA","SCHOOL_ZIP":98115,"SCHOOL_COUNTY":"King","PUBLIC_SCHOOL_DISTRICT":"Seattle","FOR_PROFIT_OR_NON_PROFIT":"For-profit","SE_ANNO_CAD_DATA":""},"id":13},
{"type":"Feature","geometry":{"type":"Point","coordinates":[-122.286757295378,47.6180672537888]},"properties":{"OBJECTID":14,"NAME":"Epiphany School","SCHOOL_STREET_ADDRESS":"3611 E Denny Way","SCHOOL_CITY":"Seattle","SCHOOL_STATE":"WA","SCHOOL_ZIP":98122,"SCHOOL_COUNTY":"King","PUBLIC_SCHOOL_DISTRICT":"Seattle","FOR_PROFIT_OR_NON_PROFIT":"Nonprofit","SE_ANNO_CAD_DATA":""},"id":14},
{"type":"Feature","geometry":{"type":"Point","coordinates":[-122.325288679857,47.6324541777892]},"properties":{"OBJECTID":15,"NAME":"Fusion Academy","SCHOOL_STREET_ADDRESS":"214 E Galer St Suite 200","SCHOOL_CITY":"Seattle","SCHOOL_STATE":"WA","SCHOOL_ZIP":98102,"SCHOOL_COUNTY":"King","PUBLIC_SCHOOL_DISTRICT":"Seattle","FOR_PROFIT_OR_NON_PROFIT":"For-profit","SE_ANNO_CAD_DATA":""},"id":15},
{"type":"Feature","geometry":{"type":"Point","coordinates":[-122.305109672504,47.583912201673]},"properties":{"OBJECTID":16,"NAME":"Giddens School","SCHOOL_STREET_ADDRESS":"2120 21st Ave S","SCHOOL_CITY":"Seattle","SCHOOL_STATE":"WA","SCHOOL_ZIP":98144,"SCHOOL_COUNTY":"King","PUBLIC_SCHOOL_DISTRICT":"Seattle","FOR_PROFIT_OR_NON_PROFIT":"Nonprofit","SE_ANNO_CAD_DATA":""},"id":16},
{"type":"Feature","geometry":{"type":"Point","coordinates":[-122.359463956598,47.5169757050488]},"properties":{"OBJECTID":17,"NAME":"Holy Family Bilingual Catholic School","SCHOOL_STREET_ADDRESS":"9615 20th Ave SW","SCHOOL_CITY":"Seattle","SCHOOL_STATE":"WA","SCHOOL_ZIP":98106,"SCHOOL_COUNTY":"King","PUBLIC_SCHOOL_DISTRICT":"Seattle","FOR_PROFIT_OR_NON_PROFIT":"Nonprofit","SE_ANNO_CAD_DATA":""},"id":17},
{"type":"Feature","geometry":{"type":"Point","coordinates":[-122.304294227698,47.6264439074866]},"properties":{"OBJECTID":18,"NAME":"Holy Names Academy","SCHOOL_STREET_ADDRESS":"728 21st Ave E","SCHOOL_CITY":"Seattle","SCHOOL_STATE":"WA","SCHOOL_ZIP":98112,"SCHOOL_COUNTY":"King","PUBLIC_SCHOOL_DISTRICT":"Seattle","FOR_PROFIT_OR_NON_PROFIT":"Nonprofit","SE_ANNO_CAD_DATA":""},"id":18},
{"type":"Feature","geometry":{"type":"Point","coordinates":[-122.306496231247,47.588305637683]},"properties":{"OBJECTID":19,"NAME":"Hamlin Robinson School","SCHOOL_STREET_ADDRESS":"1701 20th Ave S","SCHOOL_CITY":"Seattle","SCHOOL_STATE":"WA","SCHOOL_ZIP":98144,"SCHOOL_COUNTY":"King","PUBLIC_SCHOOL_DISTRICT":"Seattle","FOR_PROFIT_OR_NON_PROFIT":"Nonprofit","SE_ANNO_CAD_DATA":""},"id":19},
{"type":"Feature","geometry":{"type":"Point","coordinates":[-122.385087864436,47.5634189627588]},"properties":{"OBJECTID":20,"NAME":"Hope Lutheran Church and School","SCHOOL_STREET_ADDRESS":"4456 42nd Ave SW","SCHOOL_CITY":"Seattle","SCHOOL_STATE":"WA","SCHOOL_ZIP":98116,"SCHOOL_COUNTY":"King","PUBLIC_SCHOOL_DISTRICT":"Seattle","FOR_PROFIT_OR_NON_PROFIT":"Nonprofit","SE_ANNO_CAD_DATA":""},"id":20},
{"type":"Feature","geometry":{"type":"Point","coordinates":[-122.385018084006,47.565420999686]},"properties":{"OBJECTID":21,"NAME":"Holy Rosary School - Seattle","SCHOOL_STREET_ADDRESS":"4142 42nd Ave SW","SCHOOL_CITY":"Seattle","SCHOOL_STATE":"WA","SCHOOL_ZIP":98116,"SCHOOL_COUNTY":"King","PUBLIC_SCHOOL_DISTRICT":"Seattle","FOR_PROFIT_OR_NON_PROFIT":"Nonprofit","SE_ANNO_CAD_DATA":""},"id":21},
{"type":"Feature","geometry":{"type":"Point","coordinates":[-122.305105581571,47.5839108414126]},"properties":{"OBJECTID":22,"NAME":"Lake Washington Girls Middle School","SCHOOL_STREET_ADDRESS":"2100 S Walker Street","SCHOOL_CITY":"Seattle","SCHOOL_STATE":"WA","SCHOOL_ZIP":98144,"SCHOOL_COUNTY":"King","PUBLIC_SCHOOL_DISTRICT":"Seattle","FOR_PROFIT_OR_NON_PROFIT":"Nonprofit","SE_ANNO_CAD_DATA":""},"id":22},
{"type":"Feature","geometry":{"type":"Point","coordinates":[-122.352479084461,47.6647603800939]},"properties":{"OBJECTID":23,"NAME":"KapKa Cooperative School","SCHOOL_STREET_ADDRESS":"510 N 49th St","SCHOOL_CITY":"Seattle","SCHOOL_STATE":"WA","SCHOOL_ZIP":98103,"SCHOOL_COUNTY":"King","PUBLIC_SCHOOL_DISTRICT":"Seattle","FOR_PROFIT_OR_NON_PROFIT":"Nonprofit","SE_ANNO_CAD_DATA":""},"id":23},
{"type":"Feature","geometry":{"type":"Point","coordinates":[-122.290197010187,47.7211246741181]},"properties":{"OBJECTID":24,"NAME":"Laurel Academy","SCHOOL_STREET_ADDRESS":"12700 35th Ave NE","SCHOOL_CITY":"Seattle","SCHOOL_STATE":"WA","SCHOOL_ZIP":98125,"SCHOOL_COUNTY":"King","PUBLIC_SCHOOL_DISTRICT":"Seattle","FOR_PROFIT_OR_NON_PROFIT":"Nonprofit","SE_ANNO_CAD_DATA":""},"id":24},
{"type":"Feature","geometry":{"type":"Point","coordinates":[-122.310557647256,47.6157080524]},"properties":{"OBJECTID":25,"NAME":"Morningside Academy","SCHOOL_STREET_ADDRESS":"1605 17th Ave","SCHOOL_CITY":"Seattle","SCHOOL_STATE":"WA","SCHOOL_ZIP":98122,"SCHOOL_COUNTY":"King","PUBLIC_SCHOOL_DISTRICT":"Seattle","FOR_PROFIT_OR_NON_PROFIT":"Nonprofit","SE_ANNO_CAD_DATA":""},"id":25},
{"type":"Feature","geometry":{"type":"Point","coordinates":[-122.306012009871,47.5969192615033]},"properties":{"OBJECTID":26,"NAME":"Menachem Mendel Seattle Cheder","SCHOOL_STREET_ADDRESS":"620 20th Ave. S","SCHOOL_CITY":"Seattle","SCHOOL_STATE":"WA","SCHOOL_ZIP":98144,"SCHOOL_COUNTY":"King","PUBLIC_SCHOOL_DISTRICT":"Seattle","FOR_PROFIT_OR_NON_PROFIT":"Nonprofit","SE_ANNO_CAD_DATA":""},"id":26},
{"type":"Feature","geometry":{"type":"Point","coordinates":[-122.384743001427,47.6774564432198]},"properties":{"OBJECTID":27,"NAME":"Matheia School","SCHOOL_STREET_ADDRESS":"2205 NW 67th St","SCHOOL_CITY":"Seattle","SCHOOL_STATE":"WA","SCHOOL_ZIP":98117,"SCHOOL_COUNTY":"King","PUBLIC_SCHOOL_DISTRICT":"Seattle","FOR_PROFIT_OR_NON_PROFIT":"Nonprofit","SE_ANNO_CAD_DATA":""},"id":27},
{"type":"Feature","geometry":{"type":"Point","coordinates":[-122.379122709021,47.5614554207286]},"properties":{"OBJECTID":28,"NAME":"Northwest Montessori School","SCHOOL_STREET_ADDRESS":"4619 37th Ave SW","SCHOOL_CITY":"Seattle","SCHOOL_STATE":"WA","SCHOOL_ZIP":98126,"SCHOOL_COUNTY":"King","PUBLIC_SCHOOL_DISTRICT":"Seattle","FOR_PROFIT_OR_NON_PROFIT":"Nonprofit","SE_ANNO_CAD_DATA":""},"id":28},
{"type":"Feature","geometry":{"type":"Point","coordinates":[-122.324813395094,47.6077563492288]},"properties":{"OBJECTID":29,"NAME":"O'Dea High School","SCHOOL_STREET_ADDRESS":"802 Terry Avenue","SCHOOL_CITY":"Seattle","SCHOOL_STATE":"WA","SCHOOL_ZIP":98104,"SCHOOL_COUNTY":"King","PUBLIC_SCHOOL_DISTRICT":"Seattle","FOR_PROFIT_OR_NON_PROFIT":"Nonprofit","SE_ANNO_CAD_DATA":""},"id":29},
{"type":"Feature","geometry":{"type":"Point","coordinates":[-122.353569198801,47.6648066732801]},"properties":{"OBJECTID":30,"NAME":"Northwest Montessori School","SCHOOL_STREET_ADDRESS":"4910 Phinney Ave N","SCHOOL_CITY":"Seattle","SCHOOL_STATE":"WA","SCHOOL_ZIP":98103,"SCHOOL_COUNTY":"King","PUBLIC_SCHOOL_DISTRICT":"Seattle","FOR_PROFIT_OR_NON_PROFIT":"Nonprofit","SE_ANNO_CAD_DATA":""},"id":30},
{"type":"Feature","geometry":{"type":"Point","coordinates":[-122.300316176095,47.6822399228241]},"properties":{"OBJECTID":31,"NAME":"Northwest Montessori School","SCHOOL_STREET_ADDRESS":"7400 25th Ave NE","SCHOOL_CITY":"Seattle","SCHOOL_STATE":"WA","SCHOOL_ZIP":98115,"SCHOOL_COUNTY":"King","PUBLIC_SCHOOL_DISTRICT":"Seattle","FOR_PROFIT_OR_NON_PROFIT":"Nonprofit","SE_ANNO_CAD_DATA":""},"id":31},
{"type":"Feature","geometry":{"type":"Point","coordinates":[-122.39976574793,47.6472466838203]},"properties":{"OBJECTID":32,"NAME":"Our Lady of Fatima Parish School","SCHOOL_STREET_ADDRESS":"3301 West Dravus St","SCHOOL_CITY":"Seattle","SCHOOL_STATE":"WA","SCHOOL_ZIP":98199,"SCHOOL_COUNTY":"King","PUBLIC_SCHOOL_DISTRICT":"Seattle","FOR_PROFIT_OR_NON_PROFIT":"Nonprofit","SE_ANNO_CAD_DATA":""},"id":32},
{"type":"Feature","geometry":{"type":"Point","coordinates":[-122.364169226642,47.6602316114259]},"properties":{"OBJECTID":33,"NAME":"Pacific Crest School","SCHOOL_STREET_ADDRESS":"600 NW Bright St","SCHOOL_CITY":"Seattle","SCHOOL_STATE":"WA","SCHOOL_ZIP":98107,"SCHOOL_COUNTY":"King","PUBLIC_SCHOOL_DISTRICT":"Seattle","FOR_PROFIT_OR_NON_PROFIT":"Nonprofit","SE_ANNO_CAD_DATA":""},"id":33},
{"type":"Feature","geometry":{"type":"Point","coordinates":[-122.324268586696,47.5962887642946]},"properties":{"OBJECTID":34,"NAME":"Puget Sound Community School","SCHOOL_STREET_ADDRESS":"660 S Dearborn St","SCHOOL_CITY":"Seattle","SCHOOL_STATE":"WA","SCHOOL_ZIP":98134,"SCHOOL_COUNTY":"King","PUBLIC_SCHOOL_DISTRICT":"Seattle","FOR_PROFIT_OR_NON_PROFIT":"Nonprofit","SE_ANNO_CAD_DATA":""},"id":34},
{"type":"Feature","geometry":{"type":"Point","coordinates":[-122.375636846921,47.5388730560086]},"properties":{"OBJECTID":35,"NAME":"Our Lady of Guadalupe Catholic School","SCHOOL_STREET_ADDRESS":"3401 SW Myrtle St","SCHOOL_CITY":"Seattle","SCHOOL_STATE":"WA","SCHOOL_ZIP":98126,"SCHOOL_COUNTY":"King","PUBLIC_SCHOOL_DISTRICT":"Seattle","FOR_PROFIT_OR_NON_PROFIT":"Nonprofit","SE_ANNO_CAD_DATA":""},"id":35},
{"type":"Feature","geometry":{"type":"Point","coordinates":[-122.316298682047,47.6126593764614]},"properties":{"OBJECTID":36,"NAME":"Seattle Academy of Arts and Sciences","SCHOOL_STREET_ADDRESS":"1201 E Union Street","SCHOOL_CITY":"Seattle","SCHOOL_STATE":"WA","SCHOOL_ZIP":98122,"SCHOOL_COUNTY":"King","PUBLIC_SCHOOL_DISTRICT":"Seattle","FOR_PROFIT_OR_NON_PROFIT":"Nonprofit","SE_ANNO_CAD_DATA":""},"id":36},
{"type":"Feature","geometry":{"type":"Point","coordinates":[-122.320722239881,47.6323875997196]},"properties":{"OBJECTID":37,"NAME":"Seattle Amistad School","SCHOOL_STREET_ADDRESS":"1501 10th Ave. E.","SCHOOL_CITY":"Seattle","SCHOOL_STATE":"WA","SCHOOL_ZIP":98102,"SCHOOL_COUNTY":"King","PUBLIC_SCHOOL_DISTRICT":"Seattle","FOR_PROFIT_OR_NON_PROFIT":"Nonprofit","SE_ANNO_CAD_DATA":""},"id":37},
{"type":"Feature","geometry":{"type":"Point","coordinates":[-122.308498930541,47.6096185103114]},"properties":{"OBJECTID":38,"NAME":"Seattle Classical Christian School","SCHOOL_STREET_ADDRESS":"810 18th Avenue","SCHOOL_CITY":"Seattle","SCHOOL_STATE":"WA","SCHOOL_ZIP":98122,"SCHOOL_COUNTY":"King","PUBLIC_SCHOOL_DISTRICT":"Seattle","FOR_PROFIT_OR_NON_PROFIT":"Nonprofit","SE_ANNO_CAD_DATA":""},"id":38},
{"type":"Feature","geometry":{"type":"Point","coordinates":[-122.354975454672,47.7090125625485]},"properties":{"OBJECTID":39,"NAME":"Seattle Area German American School","SCHOOL_STREET_ADDRESS":"11010 Greenwood Ave N","SCHOOL_CITY":"Seattle","SCHOOL_STATE":"WA","SCHOOL_ZIP":98133,"SCHOOL_COUNTY":"King","PUBLIC_SCHOOL_DISTRICT":"Seattle","FOR_PROFIT_OR_NON_PROFIT":"Nonprofit","SE_ANNO_CAD_DATA":""},"id":39},
{"type":"Feature","geometry":{"type":"Point","coordinates":[-122.289355216932,47.6935353749706]},"properties":{"OBJECTID":40,"NAME":"Our Lady of the Lake Catholic School","SCHOOL_STREET_ADDRESS":"3520 NE 89th Ave","SCHOOL_CITY":"Seattle","SCHOOL_STATE":"WA","SCHOOL_ZIP":98115,"SCHOOL_COUNTY":"King","PUBLIC_SCHOOL_DISTRICT":"Seattle","FOR_PROFIT_OR_NON_PROFIT":"Nonprofit","SE_ANNO_CAD_DATA":""},"id":40},
{"type":"Feature","geometry":{"type":"Point","coordinates":[-122.350899617691,47.6434406891511]},"properties":{"OBJECTID":41,"NAME":"Seattle Country Day School","SCHOOL_STREET_ADDRESS":"2619 4th Ave N","SCHOOL_CITY":"Seattle","SCHOOL_STATE":"WA","SCHOOL_ZIP":98109,"SCHOOL_COUNTY":"King","PUBLIC_SCHOOL_DISTRICT":"Seattle","FOR_PROFIT_OR_NON_PROFIT":"Nonprofit","SE_ANNO_CAD_DATA":""},"id":41},
{"type":"Feature","geometry":{"type":"Point","coordinates":[-122.325123365661,47.6808575309571]},"properties":{"OBJECTID":42,"NAME":"Seattle Jewish Community School","SCHOOL_STREET_ADDRESS":"7217 Woodlawn Ave NE","SCHOOL_CITY":"Seattle","SCHOOL_STATE":"WA","SCHOOL_ZIP":98115,"SCHOOL_COUNTY":"King","PUBLIC_SCHOOL_DISTRICT":"Seattle","FOR_PROFIT_OR_NON_PROFIT":"Nonprofit","SE_ANNO_CAD_DATA":""},"id":42},
{"type":"Feature","geometry":{"type":"Point","coordinates":[-122.279913648061,47.5506330999366]},"properties":{"OBJECTID":43,"NAME":"Seattle Nativity School","SCHOOL_STREET_ADDRESS":"4200 S Mead St","SCHOOL_CITY":"Seattle","SCHOOL_STATE":"WA","SCHOOL_ZIP":98118,"SCHOOL_COUNTY":"King","PUBLIC_SCHOOL_DISTRICT":"Seattle","FOR_PROFIT_OR_NON_PROFIT":"Nonprofit","SE_ANNO_CAD_DATA":""},"id":43},
{"type":"Feature","geometry":{"type":"Point","coordinates":[-122.300445391703,47.5880253457063]},"properties":{"OBJECTID":44,"NAME":"Seattle Girls' School","SCHOOL_STREET_ADDRESS":"1700 24th Avenue South","SCHOOL_CITY":"Seattle","SCHOOL_STATE":"WA","SCHOOL_ZIP":98144,"SCHOOL_COUNTY":"King","PUBLIC_SCHOOL_DISTRICT":"Seattle","FOR_PROFIT_OR_NON_PROFIT":"Nonprofit","SE_ANNO_CAD_DATA":""},"id":44},
{"type":"Feature","geometry":{"type":"Point","coordinates":[-122.335332409264,47.6168731935941]},"properties":{"OBJECTID":45,"NAME":"Spruce Street School","SCHOOL_STREET_ADDRESS":"914 Virginia St","SCHOOL_CITY":"Seattle","SCHOOL_STATE":"WA","SCHOOL_ZIP":98101,"SCHOOL_COUNTY":"King","PUBLIC_SCHOOL_DISTRICT":"Seattle","FOR_PROFIT_OR_NON_PROFIT":"Nonprofit","SE_ANNO_CAD_DATA":""},"id":45},
{"type":"Feature","geometry":{"type":"Point","coordinates":[-122.316787734349,47.6413289174146]},"properties":{"OBJECTID":46,"NAME":"Seattle Preparatory School","SCHOOL_STREET_ADDRESS":"2400 11th Ave E","SCHOOL_CITY":"Seattle","SCHOOL_STATE":"WA","SCHOOL_ZIP":98102,"SCHOOL_COUNTY":"King","PUBLIC_SCHOOL_DISTRICT":"Seattle","FOR_PROFIT_OR_NON_PROFIT":"Nonprofit","SE_ANNO_CAD_DATA":""},"id":46},
{"type":"Feature","geometry":{"type":"Point","coordinates":[-122.358137697652,47.6311051133489]},"properties":{"OBJECTID":47,"NAME":"St. Anne School","SCHOOL_STREET_ADDRESS":"101 W Lee St","SCHOOL_CITY":"Seattle","SCHOOL_STATE":"WA","SCHOOL_ZIP":98119,"SCHOOL_COUNTY":"King","PUBLIC_SCHOOL_DISTRICT":"Seattle","FOR_PROFIT_OR_NON_PROFIT":"Nonprofit","SE_ANNO_CAD_DATA":""},"id":47},
{"type":"Feature","geometry":{"type":"Point","coordinates":[-122.326626111128,47.699993600531]},"properties":{"OBJECTID":48,"NAME":"Spring Academy","SCHOOL_STREET_ADDRESS":"9725 3rd Ave NE, Suite 125","SCHOOL_CITY":"Seattle","SCHOOL_STATE":"WA","SCHOOL_ZIP":98115,"SCHOOL_COUNTY":"King","PUBLIC_SCHOOL_DISTRICT":"Seattle","FOR_PROFIT_OR_NON_PROFIT":"For-profit","SE_ANNO_CAD_DATA":""},"id":48},
{"type":"Feature","geometry":{"type":"Point","coordinates":[-122.375884771007,47.6714269454781]},"properties":{"OBJECTID":49,"NAME":"St. Alphonsus Parish School","SCHOOL_STREET_ADDRESS":"5816 15th Ave NW","SCHOOL_CITY":"Seattle","SCHOOL_STATE":"WA","SCHOOL_ZIP":98107,"SCHOOL_COUNTY":"King","PUBLIC_SCHOOL_DISTRICT":"Seattle","FOR_PROFIT_OR_NON_PROFIT":"Nonprofit","SE_ANNO_CAD_DATA":""},"id":49},
{"type":"Feature","geometry":{"type":"Point","coordinates":[-122.297329531293,47.7015807583734]},"properties":{"OBJECTID":50,"NAME":"Seattle Waldorf School","SCHOOL_STREET_ADDRESS":"2728 NE 100th St","SCHOOL_CITY":"Seattle","SCHOOL_STATE":"WA","SCHOOL_ZIP":98125,"SCHOOL_COUNTY":"King","PUBLIC_SCHOOL_DISTRICT":"Seattle","FOR_PROFIT_OR_NON_PROFIT":"Nonprofit","SE_ANNO_CAD_DATA":""},"id":50},
{"type":"Feature","geometry":{"type":"Point","coordinates":[-122.336766268072,47.6638009409621]},"properties":{"OBJECTID":51,"NAME":"St. Benedict Catholic School","SCHOOL_STREET_ADDRESS":"4811 Wallingford Ave N","SCHOOL_CITY":"Seattle","SCHOOL_STATE":"WA","SCHOOL_ZIP":98103,"SCHOOL_COUNTY":"King","PUBLIC_SCHOOL_DISTRICT":"Seattle","FOR_PROFIT_OR_NON_PROFIT":"Nonprofit","SE_ANNO_CAD_DATA":""},"id":51},
{"type":"Feature","geometry":{"type":"Point","coordinates":[-122.320114338326,47.6911205943767]},"properties":{"OBJECTID":52,"NAME":"St. Catherine of Siena School","SCHOOL_STREET_ADDRESS":"8524 8th Ave NE","SCHOOL_CITY":"Seattle","SCHOOL_STATE":"WA","SCHOOL_ZIP":98115,"SCHOOL_COUNTY":"King","PUBLIC_SCHOOL_DISTRICT":"Seattle","FOR_PROFIT_OR_NON_PROFIT":"Nonprofit","SE_ANNO_CAD_DATA":""},"id":52},
{"type":"Feature","geometry":{"type":"Point","coordinates":[-122.308276673858,47.6254781836742]},"properties":{"OBJECTID":53,"NAME":"St. Joseph School","SCHOOL_STREET_ADDRESS":"700 18th Avenue East","SCHOOL_CITY":"Seattle","SCHOOL_STATE":"WA","SCHOOL_ZIP":98112,"SCHOOL_COUNTY":"King","PUBLIC_SCHOOL_DISTRICT":"Seattle","FOR_PROFIT_OR_NON_PROFIT":"Nonprofit","SE_ANNO_CAD_DATA":""},"id":53},
{"type":"Feature","geometry":{"type":"Point","coordinates":[-122.316411407943,47.5558661219469]},"properties":{"OBJECTID":54,"NAME":"St. George Parish School","SCHOOL_STREET_ADDRESS":"5117 13th Ave S","SCHOOL_CITY":"Seattle","SCHOOL_STATE":"WA","SCHOOL_ZIP":98108,"SCHOOL_COUNTY":"King","PUBLIC_SCHOOL_DISTRICT":"Seattle","FOR_PROFIT_OR_NON_PROFIT":"Nonprofit","SE_ANNO_CAD_DATA":""},"id":54},
{"type":"Feature","geometry":{"type":"Point","coordinates":[-122.387874105747,47.5219044089472]},"properties":{"OBJECTID":55,"NAME":"Taproot School","SCHOOL_STREET_ADDRESS":"9131 California Ave SW","SCHOOL_CITY":"Seattle","SCHOOL_STATE":"WA","SCHOOL_ZIP":98136,"SCHOOL_COUNTY":"King","PUBLIC_SCHOOL_DISTRICT":"Seattle","FOR_PROFIT_OR_NON_PROFIT":"For-profit","SE_ANNO_CAD_DATA":""},"id":55},
{"type":"Feature","geometry":{"type":"Point","coordinates":[-122.288792877249,47.6229072835477]},"properties":{"OBJECTID":56,"NAME":"The Bush School","SCHOOL_STREET_ADDRESS":"3400 E Harrison Street","SCHOOL_CITY":"Seattle","SCHOOL_STATE":"WA","SCHOOL_ZIP":98112,"SCHOOL_COUNTY":"King","PUBLIC_SCHOOL_DISTRICT":"Seattle","FOR_PROFIT_OR_NON_PROFIT":"Nonprofit","SE_ANNO_CAD_DATA":""},"id":56},
{"type":"Feature","geometry":{"type":"Point","coordinates":[-122.313924796764,47.7215454155295]},"properties":{"OBJECTID":57,"NAME":"St. Matthew School","SCHOOL_STREET_ADDRESS":"1230 NE 127th St","SCHOOL_CITY":"Seattle","SCHOOL_STATE":"WA","SCHOOL_ZIP":98125,"SCHOOL_COUNTY":"King","PUBLIC_SCHOOL_DISTRICT":"Seattle","FOR_PROFIT_OR_NON_PROFIT":"Nonprofit","SE_ANNO_CAD_DATA":""},"id":57},
{"type":"Feature","geometry":{"type":"Point","coordinates":[-122.357634555884,47.686394142626]},"properties":{"OBJECTID":58,"NAME":"St. John Catholic School","SCHOOL_STREET_ADDRESS":"120 N 79th Street","SCHOOL_CITY":"Seattle","SCHOOL_STATE":"WA","SCHOOL_ZIP":98103,"SCHOOL_COUNTY":"King","PUBLIC_SCHOOL_DISTRICT":"Seattle","FOR_PROFIT_OR_NON_PROFIT":"Nonprofit","SE_ANNO_CAD_DATA":""},"id":58},
{"type":"Feature","geometry":{"type":"Point","coordinates":[-122.353778916644,47.6199979045291]},"properties":{"OBJECTID":59,"NAME":"The Downtown School: A Lakeside School","SCHOOL_STREET_ADDRESS":"160 John Street","SCHOOL_CITY":"Seattle","SCHOOL_STATE":"WA","SCHOOL_ZIP":98109,"SCHOOL_COUNTY":"King","PUBLIC_SCHOOL_DISTRICT":"Seattle","FOR_PROFIT_OR_NON_PROFIT":"Nonprofit","SE_ANNO_CAD_DATA":""},"id":59},
{"type":"Feature","geometry":{"type":"Point","coordinates":[-122.285361353407,47.5749865276442]},"properties":{"OBJECTID":60,"NAME":"The Lake and Park School","SCHOOL_STREET_ADDRESS":"3201 Hunter Blvd S.","SCHOOL_CITY":"Seattle","SCHOOL_STATE":"WA","SCHOOL_ZIP":98144,"SCHOOL_COUNTY":"King","PUBLIC_SCHOOL_DISTRICT":"Seattle","FOR_PROFIT_OR_NON_PROFIT":"Nonprofit","SE_ANNO_CAD_DATA":""},"id":60},
{"type":"Feature","geometry":{"type":"Point","coordinates":[-122.331178477053,47.6641011035424]},"properties":{"OBJECTID":61,"NAME":"The Meridian School","SCHOOL_STREET_ADDRESS":"4649 Sunnyside Ave N, Suite 242","SCHOOL_CITY":"Seattle","SCHOOL_STATE":"WA","SCHOOL_ZIP":98103,"SCHOOL_COUNTY":"King","PUBLIC_SCHOOL_DISTRICT":"Seattle","FOR_PROFIT_OR_NON_PROFIT":"Nonprofit","SE_ANNO_CAD_DATA":""},"id":61},
{"type":"Feature","geometry":{"type":"Point","coordinates":[-122.318065233576,47.6942198612908]},"properties":{"OBJECTID":62,"NAME":"The Perkins School","SCHOOL_STREET_ADDRESS":"9005 Roosevelt Way NE","SCHOOL_CITY":"Seattle","SCHOOL_STATE":"WA","SCHOOL_ZIP":98115,"SCHOOL_COUNTY":"King","PUBLIC_SCHOOL_DISTRICT":"Seattle","FOR_PROFIT_OR_NON_PROFIT":"Nonprofit","SE_ANNO_CAD_DATA":""},"id":62},
{"type":"Feature","geometry":{"type":"Point","coordinates":[-122.32594232558,47.6133910689644]},"properties":{"OBJECTID":63,"NAME":"The Northwest School","SCHOOL_STREET_ADDRESS":"1415 Summit Avenue","SCHOOL_CITY":"Seattle","SCHOOL_STATE":"WA","SCHOOL_ZIP":98122,"SCHOOL_COUNTY":"King","PUBLIC_SCHOOL_DISTRICT":"Seattle","FOR_PROFIT_OR_NON_PROFIT":"Nonprofit","SE_ANNO_CAD_DATA":""},"id":63},
{"type":"Feature","geometry":{"type":"Point","coordinates":[-122.387190257696,47.5661485878265]},"properties":{"OBJECTID":64,"NAME":"Tilden School","SCHOOL_STREET_ADDRESS":"4105 California Ave SW","SCHOOL_CITY":"Seattle","SCHOOL_STATE":"WA","SCHOOL_ZIP":98116,"SCHOOL_COUNTY":"King","PUBLIC_SCHOOL_DISTRICT":"Seattle","FOR_PROFIT_OR_NON_PROFIT":"Nonprofit","SE_ANNO_CAD_DATA":""},"id":64},
{"type":"Feature","geometry":{"type":"Point","coordinates":[-122.268030990536,47.5430985259125]},"properties":{"OBJECTID":65,"NAME":"Torah Day School of Seattle","SCHOOL_STREET_ADDRESS":"5142 South Holly Street","SCHOOL_CITY":"Seattle","SCHOOL_STATE":"WA","SCHOOL_ZIP":98118,"SCHOOL_COUNTY":"King","PUBLIC_SCHOOL_DISTRICT":"Seattle","FOR_PROFIT_OR_NON_PROFIT":"Nonprofit","SE_ANNO_CAD_DATA":""},"id":65},
{"type":"Feature","geometry":{"type":"Point","coordinates":[-122.296912138839,47.599492016138]},"properties":{"OBJECTID":66,"NAME":"Trillium Academy","SCHOOL_STREET_ADDRESS":"2706 S. Jackson St.","SCHOOL_CITY":"Seattle","SCHOOL_STATE":"WA","SCHOOL_ZIP":98144,"SCHOOL_COUNTY":"King","PUBLIC_SCHOOL_DISTRICT":"Seattle","FOR_PROFIT_OR_NON_PROFIT":"Nonprofit","SE_ANNO_CAD_DATA":""},"id":66},
{"type":"Feature","geometry":{"type":"Point","coordinates":[-122.313360341742,47.6696540457429]},"properties":{"OBJECTID":67,"NAME":"University Cooperative School","SCHOOL_STREET_ADDRESS":"5601 University Ave NE","SCHOOL_CITY":"Seattle","SCHOOL_STATE":"WA","SCHOOL_ZIP":98105,"SCHOOL_COUNTY":"King","PUBLIC_SCHOOL_DISTRICT":"Seattle","FOR_PROFIT_OR_NON_PROFIT":"Nonprofit","SE_ANNO_CAD_DATA":""},"id":67},
{"type":"Feature","geometry":{"type":"Point","coordinates":[-122.2929543951,47.6218967330671]},"properties":{"OBJECTID":68,"NAME":"The Valley School","SCHOOL_STREET_ADDRESS":"318 30th Ave E","SCHOOL_CITY":"Seattle","SCHOOL_STATE":"WA","SCHOOL_ZIP":98112,"SCHOOL_COUNTY":"King","PUBLIC_SCHOOL_DISTRICT":"Seattle","FOR_PROFIT_OR_NON_PROFIT":"Nonprofit","SE_ANNO_CAD_DATA":""},"id":68},
{"type":"Feature","geometry":{"type":"Point","coordinates":[-122.318178015014,47.6666485963454]},"properties":{"OBJECTID":69,"NAME":"University Child Development School","SCHOOL_STREET_ADDRESS":"5062 9th Ave NE","SCHOOL_CITY":"Seattle","SCHOOL_STATE":"WA","SCHOOL_ZIP":98105,"SCHOOL_COUNTY":"King","PUBLIC_SCHOOL_DISTRICT":"Seattle","FOR_PROFIT_OR_NON_PROFIT":"Nonprofit","SE_ANNO_CAD_DATA":""},"id":69},
{"type":"Feature","geometry":{"type":"Point","coordinates":[-122.273409832981,47.6636423235498]},"properties":{"OBJECTID":70,"NAME":"Villa Academy","SCHOOL_STREET_ADDRESS":"5001 NE 50th Street","SCHOOL_CITY":"Seattle","SCHOOL_STATE":"WA","SCHOOL_ZIP":98105,"SCHOOL_COUNTY":"King","PUBLIC_SCHOOL_DISTRICT":"Seattle","FOR_PROFIT_OR_NON_PROFIT":"Nonprofit","SE_ANNO_CAD_DATA":""},"id":70},
{"type":"Feature","geometry":{"type":"Point","coordinates":[-122.328349542702,47.7272592843665]},"properties":{"OBJECTID":71,"NAME":"Lakeside School (Middle)","SCHOOL_STREET_ADDRESS":"13510 1st Avenue NE","SCHOOL_CITY":"Seattle","SCHOOL_STATE":"WA","SCHOOL_ZIP":98125,"SCHOOL_COUNTY":"King","PUBLIC_SCHOOL_DISTRICT":"Shoreline","FOR_PROFIT_OR_NON_PROFIT":"Nonprofit","SE_ANNO_CAD_DATA":""},"id":71},
{"type":"Feature","geometry":{"type":"Point","coordinates":[-122.300132906939,47.686998840378]},"properties":{"OBJECTID":72,"NAME":"University Preparatory Academy","SCHOOL_STREET_ADDRESS":"8000 25th Ave NE","SCHOOL_CITY":"Seattle","SCHOOL_STATE":"WA","SCHOOL_ZIP":98115,"SCHOOL_COUNTY":"King","PUBLIC_SCHOOL_DISTRICT":"Seattle","FOR_PROFIT_OR_NON_PROFIT":"Nonprofit","SE_ANNO_CAD_DATA":""},"id":72},
{"type":"Feature","geometry":{"type":"Point","coordinates":[-122.373951952225,47.5095926174608]},"properties":{"OBJECTID":73,"NAME":"Westside School","SCHOOL_STREET_ADDRESS":"10404 34th Ave SW","SCHOOL_CITY":"Seattle","SCHOOL_STATE":"WA","SCHOOL_ZIP":98146,"SCHOOL_COUNTY":"King","PUBLIC_SCHOOL_DISTRICT":"Seattle","FOR_PROFIT_OR_NON_PROFIT":"Nonprofit","SE_ANNO_CAD_DATA":""},"id":73},
{"type":"Feature","geometry":{"type":"Point","coordinates":[-122.327316415,47.731879390682]},"properties":{"OBJECTID":74,"NAME":"Lakeside School (Upper)","SCHOOL_STREET_ADDRESS":"14050 1st Avenue NE","SCHOOL_CITY":"Seattle","SCHOOL_STATE":"WA","SCHOOL_ZIP":98125,"SCHOOL_COUNTY":"King","PUBLIC_SCHOOL_DISTRICT":"Shoreline","FOR_PROFIT_OR_NON_PROFIT":"Nonprofit","SE_ANNO_CAD_DATA":""},"id":74}
]}